header: 
  seq: 10142
  stamp: 
    secs: 0
    nsecs:         0
  frame_id: ''
wrench: 
  force: 
    x: -0.00954327262853
    y: 0.0962691513277
    z: -0.0056303911327
  torque: 
    x: 0.00232417299036
    y: -0.00344005871471
    z: -0.00292395861116
---
header: 
  seq: 10143
  stamp: 
    secs: 0
    nsecs:         0
  frame_id: ''
wrench: 
  force: 
    x: 0.00320515614398
    y: 0.0984073397611
    z: -0.00157051823993
  torque: 
    x: -1.95360063283e-06
    y: 0.0012435885629
    z: 0.00234546763453
---
header: 
  seq: 10144
  stamp: 
    secs: 0
    nsecs:         0
  frame_id: ''
wrench: 
  force: 
    x: -0.00071465161133
    y: 0.0980972788872
    z: -0.00170730017811
  torque: 
    x: -2.31885616743e-06
    y: -9.378901003e-05
    z: -0.000113584629848
---
header: 
  seq: 10145
  stamp: 
    secs: 0
    nsecs:         0
  frame_id: ''
wrench: 
  force: 
    x: -0.00530507527466
    y: 0.0905971263082
    z: -0.00407066599235
  torque: 
    x: 0.00506629835263
    y: -0.000897897626208
    z: -0.00612769455711
---
header: 
  seq: 10146
  stamp: 
    secs: 0
    nsecs:         0
  frame_id: ''
wrench: 
  force: 
    x: -0.0209915670371
    y: 0.097143962788
    z: -0.00434741376212
  torque: 
    x: 0.00195497385292
    y: -0.00635614301566
    z: -0.00744873161421
---
header: 
  seq: 10147
  stamp: 
    secs: 0
    nsecs:         0
  frame_id: ''
wrench: 
  force: 
    x: -0.00138597143723
    y: 0.0976663614198
    z: -0.00166221848738
  torque: 
    x: 1.95705138367e-05
    y: -0.000112192135263
    z: -0.000263393462583
---
header: 
  seq: 10148
  stamp: 
    secs: 0
    nsecs:         0
  frame_id: ''
wrench: 
  force: 
    x: 0.000236499910551
    y: 0.0980569119376
    z: -0.00170836147277
  torque: 
    x: 2.21967135077e-06
    y: 3.11750230833e-06
    z: 8.72383686096e-06
---
header: 
  seq: 10149
  stamp: 
    secs: 0
    nsecs:         0
  frame_id: ''
wrench: 
  force: 
    x: 0.00939225079587
    y: 0.0978112126086
    z: 0.00324482944754
  torque: 
    x: -0.00216388465281
    y: 0.00365413854561
    z: 0.00426374892688
---
header: 
  seq: 10150
  stamp: 
    secs: 0
    nsecs:         0
  frame_id: ''
wrench: 
  force: 
    x: -0.00317026523432
    y: 0.102241700728
    z: -0.000368417439697
  torque: 
    x: -0.00262016895263
    y: 0.00237961599566
    z: -0.00165442058783
---
header: 
  seq: 10151
  stamp: 
    secs: 0
    nsecs:         0
  frame_id: ''
wrench: 
  force: 
    x: -0.000898710972764
    y: 0.0979406035114
    z: -0.00169490223254
  torque: 
    x: 1.54501051675e-06
    y: -0.000108661784181
    z: -0.000173391051212
---
header: 
  seq: 10152
  stamp: 
    secs: 0
    nsecs:         0
  frame_id: ''
wrench: 
  force: 
    x: -0.0189779445123
    y: 0.0972762553879
    z: -0.00505345793152
  torque: 
    x: 0.00194145061378
    y: -0.00590546812704
    z: -0.0066406044683
---
header: 
  seq: 10153
  stamp: 
    secs: 0
    nsecs:         0
  frame_id: ''
wrench: 
  force: 
    x: -0.00166720860807
    y: 0.0981309002216
    z: -0.00156110724889
  torque: 
    x: -6.09732845159e-06
    y: -0.000200848262542
    z: -0.000222027345969
---
header: 
  seq: 10154
  stamp: 
    secs: 0
    nsecs:         0
  frame_id: ''
wrench: 
  force: 
    x: 0.000449174449542
    y: 0.0980556126505
    z: -0.0016835272482
  torque: 
    x: 2.84555452073e-06
    y: 3.92688252274e-05
    z: 5.1493043976e-05
---
header: 
  seq: 10155
  stamp: 
    secs: 0
    nsecs:         0
  frame_id: ''
wrench: 
  force: 
    x: -0.0102934516818
    y: 0.097822322857
    z: -0.00375544577786
  torque: 
    x: 0.00157993694927
    y: -0.00362513172173
    z: -0.00301318540139
---
header: 
  seq: 10156
  stamp: 
    secs: 0
    nsecs:         0
  frame_id: ''
wrench: 
  force: 
    x: 0.0252420208922
    y: 0.0880198401149
    z: -0.000107477595835
  torque: 
    x: 0.00426368043817
    y: 0.00915698502207
    z: 0.00433195104483
---
header: 
  seq: 10157
  stamp: 
    secs: 0
    nsecs:         0
  frame_id: ''
wrench: 
  force: 
    x: -0.000394137442637
    y: 0.0976873084084
    z: -0.00166923480318
  torque: 
    x: 1.23535097639e-05
    y: -5.45737911502e-05
    z: -0.000184467197889
---
header: 
  seq: 10158
  stamp: 
    secs: 0
    nsecs:         0
  frame_id: ''
wrench: 
  force: 
    x: -0.0190616564688
    y: 0.0972520169782
    z: -0.00507308382618
  torque: 
    x: 0.00194463914706
    y: -0.00591582383169
    z: -0.00667151013235
---
header: 
  seq: 10159
  stamp: 
    secs: 0
    nsecs:         0
  frame_id: ''
wrench: 
  force: 
    x: -0.00161303184838
    y: 0.0981229836494
    z: -0.00157045247358
  torque: 
    x: -5.14344225902e-06
    y: -0.000195185667716
    z: -0.000215913524426
---
header: 
  seq: 10160
  stamp: 
    secs: 0
    nsecs:         0
  frame_id: ''
wrench: 
  force: 
    x: 0.000436173576528
    y: 0.0980581014507
    z: -0.00167924107214
  torque: 
    x: 2.66840085439e-06
    y: 3.91638909453e-05
    z: 4.86452545833e-05
---
header: 
  seq: 10161
  stamp: 
    secs: 0
    nsecs:         0
  frame_id: ''
wrench: 
  force: 
    x: 0.00163739987127
    y: 0.107128863626
    z: 0.000522945293447
  torque: 
    x: -0.00346920253356
    y: 0.00196791849867
    z: 0.00161922795363
---
header: 
  seq: 10162
  stamp: 
    secs: 0
    nsecs:         0
  frame_id: ''
wrench: 
  force: 
    x: -0.00380996617783
    y: 0.10571657809
    z: -0.00032387081816
  torque: 
    x: -0.00373863128901
    y: -0.00551677646812
    z: 0.00366074590893
---
header: 
  seq: 10163
  stamp: 
    secs: 0
    nsecs:         0
  frame_id: ''
wrench: 
  force: 
    x: -0.00128842418903
    y: 0.0978633439692
    z: -0.00177861244952
  torque: 
    x: 1.27588928938e-05
    y: -0.000132314090583
    z: -0.000210852839018
---
header: 
  seq: 10164
  stamp: 
    secs: 0
    nsecs:         0
  frame_id: ''
wrench: 
  force: 
    x: -0.00136416872728
    y: 0.108762237921
    z: 0.00167452876454
  torque: 
    x: -0.00551767401608
    y: -0.00210272452943
    z: 0.00244544003595
---
header: 
  seq: 10165
  stamp: 
    secs: 0
    nsecs:         0
  frame_id: ''
wrench: 
  force: 
    x: 0.000612007940062
    y: 0.104197177487
    z: -0.00130762082849
  torque: 
    x: -0.00340522289771
    y: -0.00485175173446
    z: 0.00406869612816
---
header: 
  seq: 10166
  stamp: 
    secs: 0
    nsecs:         0
  frame_id: ''
wrench: 
  force: 
    x: -9.36205198399e-05
    y: 0.0973787137422
    z: -0.00143888245358
  torque: 
    x: 1.31255844013e-05
    y: 3.58787684049e-05
    z: -0.000288108299645
---
header: 
  seq: 10167
  stamp: 
    secs: 0
    nsecs:         0
  frame_id: ''
wrench: 
  force: 
    x: 2.62446564426e-05
    y: 0.0981820471115
    z: -0.00161829935129
  torque: 
    x: -1.09704708241e-05
    y: 1.14002892248e-05
    z: -5.72352923633e-06
---
header: 
  seq: 10168
  stamp: 
    secs: 0
    nsecs:         0
  frame_id: ''
wrench: 
  force: 
    x: -0.00715618762705
    y: 0.104634405421
    z: -0.00163814079219
  torque: 
    x: -0.00448477349697
    y: -0.00161472690016
    z: -0.0018896925946
---
header: 
  seq: 10169
  stamp: 
    secs: 0
    nsecs:         0
  frame_id: ''
wrench: 
  force: 
    x: 0.00403372045811
    y: 0.0999850229669
    z: 0.00142526669569
  torque: 
    x: -0.00435468714474
    y: -0.00143653106652
    z: 0.0051727518819
---
header: 
  seq: 10170
  stamp: 
    secs: 0
    nsecs:         0
  frame_id: ''
wrench: 
  force: 
    x: 0.00248965832241
    y: 0.0992106834179
    z: 0.0015498260808
  torque: 
    x: -0.00426796800869
    y: -0.00160837525747
    z: 0.00475282185058
---
header: 
  seq: 10171
  stamp: 
    secs: 0
    nsecs:         0
  frame_id: ''
wrench: 
  force: 
    x: -6.88360837607e-05
    y: 0.109784013167
    z: -0.000190032007894
  torque: 
    x: -0.00387120120384
    y: 0.00164385266252
    z: 0.000339065105596
---
header: 
  seq: 10172
  stamp: 
    secs: 0
    nsecs:         0
  frame_id: ''
wrench: 
  force: 
    x: 0.00481713264209
    y: 0.0994085664935
    z: 0.00169677189845
  torque: 
    x: -0.00440908711364
    y: -0.00113658202284
    z: 0.00533548770275
---
header: 
  seq: 10173
  stamp: 
    secs: 0
    nsecs:         0
  frame_id: ''
wrench: 
  force: 
    x: 0.00715486444892
    y: 0.0993181427716
    z: 0.00250306339985
  torque: 
    x: -0.00234687666304
    y: 0.00343753948924
    z: 0.0039883508719
---
header: 
  seq: 10174
  stamp: 
    secs: 0
    nsecs:         0
  frame_id: ''
wrench: 
  force: 
    x: 0.00821551360966
    y: 0.0977074983786
    z: 0.00318368226775
  torque: 
    x: -0.00230570069424
    y: 0.00361697420545
    z: 0.00368279894988
---
header: 
  seq: 10175
  stamp: 
    secs: 0
    nsecs:         0
  frame_id: ''
wrench: 
  force: 
    x: -0.00119140022595
    y: 0.109314043697
    z: -0.000335657836581
  torque: 
    x: -0.0036850448208
    y: 0.00126402987663
    z: -0.000115703405537
---
header: 
  seq: 10176
  stamp: 
    secs: 0
    nsecs:         0
  frame_id: ''
wrench: 
  force: 
    x: 0.00484003931799
    y: 0.0995757960108
    z: 0.00174264995914
  torque: 
    x: -0.00443385442238
    y: -0.00114001432184
    z: 0.00535412515586
---
header: 
  seq: 10177
  stamp: 
    secs: 0
    nsecs:         0
  frame_id: ''
wrench: 
  force: 
    x: 0.00829219343649
    y: 0.0993883991112
    z: 0.00299635079495
  torque: 
    x: -0.00247408909138
    y: 0.00360759176475
    z: 0.00405881027333
---
header: 
  seq: 10178
  stamp: 
    secs: 0
    nsecs:         0
  frame_id: ''
wrench: 
  force: 
    x: -0.00106191036066
    y: 0.109296799927
    z: -0.000317727872699
  torque: 
    x: -0.00368542933917
    y: 0.00128979483875
    z: -9.74656967661e-05
---
header: 
  seq: 10179
  stamp: 
    secs: 0
    nsecs:         0
  frame_id: ''
wrench: 
  force: 
    x: 0.00485535957086
    y: 0.0995923084209
    z: 0.00172955509152
  torque: 
    x: -0.00443785444293
    y: -0.00113654268265
    z: 0.00534293536187
---
header: 
  seq: 10180
  stamp: 
    secs: 0
    nsecs:         0
  frame_id: ''
wrench: 
  force: 
    x: 0.00513338569895
    y: 0.0999680766569
    z: 0.00225213158518
  torque: 
    x: -0.00458481627023
    y: -0.00105132831471
    z: 0.00539808278886
---
header: 
  seq: 10181
  stamp: 
    secs: 0
    nsecs:         0
  frame_id: ''
wrench: 
  force: 
    x: 0.00770528944064
    y: 0.0988350069678
    z: 0.00353226823425
  torque: 
    x: -0.0024577427989
    y: 0.00351295855209
    z: 0.00381462914569
---
header: 
  seq: 10182
  stamp: 
    secs: 0
    nsecs:         0
  frame_id: ''
wrench: 
  force: 
    x: 0.000798978515699
    y: 0.109457003127
    z: -0.00012801209963
  torque: 
    x: -0.00380345899413
    y: 0.0017990650924
    z: 0.000452819542622
---
header: 
  seq: 10183
  stamp: 
    secs: 0
    nsecs:         0
  frame_id: ''
wrench: 
  force: 
    x: 0.00429040265273
    y: 0.0997096943141
    z: 0.00172529842262
  torque: 
    x: -0.00443858402083
    y: -0.00119485230979
    z: 0.00535485188425
---
header: 
  seq: 10184
  stamp: 
    secs: 0
    nsecs:         0
  frame_id: ''
wrench: 
  force: 
    x: 0.0077211484262
    y: 0.0988421907935
    z: 0.00257320030492
  torque: 
    x: -0.00240962373966
    y: 0.00352780561055
    z: 0.00381505510416
---
header: 
  seq: 10185
  stamp: 
    secs: 0
    nsecs:         0
  frame_id: ''
wrench: 
  force: 
    x: 0.00105388846252
    y: 0.109473877988
    z: 0.000936972552409
  torque: 
    x: -0.00399749557057
    y: 0.00193087013817
    z: 0.000457737042583
---
header: 
  seq: 10186
  stamp: 
    secs: 0
    nsecs:         0
  frame_id: ''
wrench: 
  force: 
    x: 0.00427499936924
    y: 0.0999243318843
    z: 0.00188814971733
  torque: 
    x: -0.00446850492742
    y: -0.00123125877881
    z: 0.00540825492087
---
header: 
  seq: 10187
  stamp: 
    secs: 0
    nsecs:         0
  frame_id: ''
wrench: 
  force: 
    x: 0.00797481719966
    y: 0.0989031631765
    z: 0.00315691112675
  torque: 
    x: -0.00246878167642
    y: 0.0034728102532
    z: 0.00391308380041
---
header: 
  seq: 10188
  stamp: 
    secs: 0
    nsecs:         0
  frame_id: ''
wrench: 
  force: 
    x: 0.00120446914287
    y: 0.109251055316
    z: 0.000894844982533
  torque: 
    x: -0.00395781250166
    y: 0.00199771960367
    z: 0.000430538970291
---
header: 
  seq: 10189
  stamp: 
    secs: 0
    nsecs:         0
  frame_id: ''
wrench: 
  force: 
    x: 0.00433655255253
    y: 0.0999003027618
    z: 0.00186091742774
  torque: 
    x: -0.00446221789273
    y: -0.00122167051667
    z: 0.00540073856352
---
header: 
  seq: 10190
  stamp: 
    secs: 0
    nsecs:         0
  frame_id: ''
wrench: 
  force: 
    x: 0.00340362361804
    y: 0.0997417270145
    z: 0.00170968766551
  torque: 
    x: -0.00443992171596
    y: -0.00131304588453
    z: 0.00526421204103
---
header: 
  seq: 10191
  stamp: 
    secs: 0
    nsecs:         0
  frame_id: ''
wrench: 
  force: 
    x: 0.00500172376462
    y: 0.100751091875
    z: 0.00176226380505
  torque: 
    x: -0.00465514349212
    y: -0.00129195362029
    z: 0.00562212680922
---
header: 
  seq: 10192
  stamp: 
    secs: 0
    nsecs:         0
  frame_id: ''
wrench: 
  force: 
    x: 0.00734327867969
    y: 0.0988656608126
    z: 0.00301695751957
  torque: 
    x: -0.00242667643247
    y: 0.00349732662382
    z: 0.00373907504952
---
header: 
  seq: 10193
  stamp: 
    secs: 0
    nsecs:         0
  frame_id: ''
wrench: 
  force: 
    x: 0.00747099185846
    y: 0.0986883553787
    z: 0.00367524117715
  torque: 
    x: -0.00246407783034
    y: 0.00344898658243
    z: 0.00400267801542
---
header: 
  seq: 10194
  stamp: 
    secs: 0
    nsecs:         0
  frame_id: ''
wrench: 
  force: 
    x: 0.00722566476486
    y: 0.0987438494282
    z: 0.00304660886572
  torque: 
    x: -0.002425028519
    y: 0.00348776571446
    z: 0.00377637324696
---
header: 
  seq: 10195
  stamp: 
    secs: 0
    nsecs:         0
  frame_id: ''
wrench: 
  force: 
    x: 0.00713180796686
    y: 0.0988180157404
    z: 0.00359959539268
  torque: 
    x: -0.00247495961758
    y: 0.00336683588808
    z: 0.0039895490891
---
header: 
  seq: 10196
  stamp: 
    secs: 0
    nsecs:         0
  frame_id: ''
wrench: 
  force: 
    x: 0.00766209525649
    y: 0.0987871885977
    z: 0.00363171028831
  torque: 
    x: -0.00248483412871
    y: 0.00344375395607
    z: 0.00388935356656
---
header: 
  seq: 10197
  stamp: 
    secs: 0
    nsecs:         0
  frame_id: ''
wrench: 
  force: 
    x: 0.00647817208158
    y: 0.0989348707139
    z: 0.00318928406262
  torque: 
    x: -0.00244933193795
    y: 0.00335444805488
    z: 0.00375341517103
---
header: 
  seq: 10198
  stamp: 
    secs: 0
    nsecs:         0
  frame_id: ''
wrench: 
  force: 
    x: 0.00430456716088
    y: 0.098803569445
    z: 0.00204127874567
  torque: 
    x: -0.00446266971514
    y: -0.00119170482992
    z: 0.00525006234382
---
header: 
  seq: 10199
  stamp: 
    secs: 0
    nsecs:         0
  frame_id: ''
wrench: 
  force: 
    x: 0.00523565756862
    y: 0.0978554479587
    z: 0.00192138034438
  torque: 
    x: -0.00435229328317
    y: -0.000965688743749
    z: 0.00499738659323
---
header: 
  seq: 10200
  stamp: 
    secs: 0
    nsecs:         0
  frame_id: ''
wrench: 
  force: 
    x: -0.000276516673773
    y: 0.109253546387
    z: 0.000360405072243
  torque: 
    x: -0.00373545928099
    y: 0.00184995704179
    z: 0.000649828297161
---
header: 
  seq: 10201
  stamp: 
    secs: 0
    nsecs:         0
  frame_id: ''
wrench: 
  force: 
    x: 0.00343861947444
    y: 0.0988618561576
    z: 0.00199250031002
  torque: 
    x: -0.00447725245946
    y: -0.00130797162375
    z: 0.0052339173888
---
header: 
  seq: 10202
  stamp: 
    secs: 0
    nsecs:         0
  frame_id: ''
wrench: 
  force: 
    x: -0.000110334426946
    y: 0.109279256715
    z: 0.000204712865193
  torque: 
    x: -0.00373591489216
    y: 0.00185143915835
    z: 0.000654024450618
---
header: 
  seq: 10203
  stamp: 
    secs: 0
    nsecs:         0
  frame_id: ''
wrench: 
  force: 
    x: 0.00399139661875
    y: 0.098822683477
    z: 0.0021483112774
  torque: 
    x: -0.00446854565648
    y: -0.00121928288532
    z: 0.00528168674135
---
header: 
  seq: 10204
  stamp: 
    secs: 0
    nsecs:         0
  frame_id: ''
wrench: 
  force: 
    x: -0.00217272784601
    y: 0.101351085834
    z: -0.00501231382138
  torque: 
    x: -0.00510041489326
    y: -0.0035626622741
    z: 0.00684923089846
---
header: 
  seq: 10205
  stamp: 
    secs: 0
    nsecs:         0
  frame_id: ''
wrench: 
  force: 
    x: 0.0117091671823
    y: 0.0855011955594
    z: -0.00466113398238
  torque: 
    x: 0.00696335871031
    y: 0.00402461250293
    z: -0.00154639520669
---
header: 
  seq: 10206
  stamp: 
    secs: 0
    nsecs:         0
  frame_id: ''
wrench: 
  force: 
    x: -0.0156251435
    y: 0.100150123247
    z: -0.00406375069978
  torque: 
    x: 0.00136689664655
    y: -0.00445956584186
    z: -0.00425034161978
---
header: 
  seq: 10207
  stamp: 
    secs: 0
    nsecs:         0
  frame_id: ''
wrench: 
  force: 
    x: -6.53279966655e-05
    y: 0.0837673816898
    z: -0.00594958018481
  torque: 
    x: 0.00805311460137
    y: 0.00154951293755
    z: -0.00395947412501
---
header: 
  seq: 10208
  stamp: 
    secs: 0
    nsecs:         0
  frame_id: ''
wrench: 
  force: 
    x: -0.0115972864626
    y: 0.0990004210975
    z: -0.00534827850802
  torque: 
    x: 0.00145965491295
    y: -0.00402622850984
    z: -0.00383159570778
---
header: 
  seq: 10209
  stamp: 
    secs: 0
    nsecs:         0
  frame_id: ''
wrench: 
  force: 
    x: 0.01011784267
    y: 0.08507971188
    z: -0.00386737262012
  torque: 
    x: 0.00675220075136
    y: 0.00402224517446
    z: -0.00141557995714
---
header: 
  seq: 10210
  stamp: 
    secs: 0
    nsecs:         0
  frame_id: ''
wrench: 
  force: 
    x: -0.0161656655303
    y: 0.0994539269936
    z: -0.0046014936072
  torque: 
    x: 0.00161204183721
    y: -0.00511121771839
    z: -0.00496060326614
---
header: 
  seq: 10211
  stamp: 
    secs: 0
    nsecs:         0
  frame_id: ''
wrench: 
  force: 
    x: 0.011105069128
    y: 0.0853435051395
    z: -0.00461184438411
  torque: 
    x: 0.00668728236081
    y: 0.00430517588711
    z: -0.000939983462774
---
header: 
  seq: 10212
  stamp: 
    secs: 0
    nsecs:         0
  frame_id: ''
wrench: 
  force: 
    x: -0.0142868237972
    y: 0.098766048678
    z: -0.0038528887669
  torque: 
    x: 0.00141691282348
    y: -0.00464097448069
    z: -0.00468371022033
---
header: 
  seq: 10213
  stamp: 
    secs: 0
    nsecs:         0
  frame_id: ''
wrench: 
  force: 
    x: 0.0104296522492
    y: 0.0849030834816
    z: -0.00391427337656
  torque: 
    x: 0.00673848238678
    y: 0.00397826417567
    z: -0.00128829087487
---
header: 
  seq: 10214
  stamp: 
    secs: 0
    nsecs:         0
  frame_id: ''
wrench: 
  force: 
    x: -0.0156953534616
    y: 0.0994229284788
    z: -0.00423430149543
  torque: 
    x: 0.00161087304748
    y: -0.00502137756643
    z: -0.00492310116909
---
header: 
  seq: 10215
  stamp: 
    secs: 0
    nsecs:         0
  frame_id: ''
wrench: 
  force: 
    x: 0.0117107294519
    y: 0.0849464084237
    z: -0.00439133358516
  torque: 
    x: 0.00668936557161
    y: 0.00440857117845
    z: -0.000840679813313
---
header: 
  seq: 10216
  stamp: 
    secs: 0
    nsecs:         0
  frame_id: ''
wrench: 
  force: 
    x: -0.0141199274576
    y: 0.0985949939342
    z: -0.00429724670952
  torque: 
    x: 0.0015095031067
    y: -0.00460097891648
    z: -0.00474198795798
---
header: 
  seq: 10217
  stamp: 
    secs: 0
    nsecs:         0
  frame_id: ''
wrench: 
  force: 
    x: 0.00991616012601
    y: 0.0851456919706
    z: -0.0044751433345
  torque: 
    x: 0.006764748916
    y: 0.00388842387271
    z: -0.00136469867411
---
header: 
  seq: 10218
  stamp: 
    secs: 0
    nsecs:         0
  frame_id: ''
wrench: 
  force: 
    x: -0.0142653615727
    y: 0.0990898665254
    z: -0.00416237766578
  torque: 
    x: 0.00144913323112
    y: -0.00457925837599
    z: -0.00450051384538
---
header: 
  seq: 10219
  stamp: 
    secs: 0
    nsecs:         0
  frame_id: ''
wrench: 
  force: 
    x: 0.00991592641814
    y: 0.0851640426616
    z: -0.00449360341105
  torque: 
    x: 0.00675114189005
    y: 0.00387513493691
    z: -0.00136527235686
---
header: 
  seq: 10220
  stamp: 
    secs: 0
    nsecs:         0
  frame_id: ''
wrench: 
  force: 
    x: -0.0142423786534
    y: 0.0992914425699
    z: -0.00421341753317
  torque: 
    x: 0.00143761790671
    y: -0.00456845634987
    z: -0.0044841744782
---
header: 
  seq: 10221
  stamp: 
    secs: 0
    nsecs:         0
  frame_id: ''
wrench: 
  force: 
    x: 0.0117196258129
    y: 0.0849551855633
    z: -0.00445240936595
  torque: 
    x: 0.00664764753914
    y: 0.00436427827972
    z: -0.000850177999927
---
header: 
  seq: 10222
  stamp: 
    secs: 0
    nsecs:         0
  frame_id: ''
wrench: 
  force: 
    x: -0.0139837832112
    y: 0.0990296834024
    z: -0.00421862610477
  torque: 
    x: 0.00145920401077
    y: -0.00451734846196
    z: -0.00449849429844
---
header: 
  seq: 10223
  stamp: 
    secs: 0
    nsecs:         0
  frame_id: ''
wrench: 
  force: 
    x: 0.00976961450874
    y: 0.0853605282121
    z: -0.00456541937255
  torque: 
    x: 0.00672349330341
    y: 0.00383458340625
    z: -0.00136483722166
---
header: 
  seq: 10224
  stamp: 
    secs: 0
    nsecs:         0
  frame_id: ''
wrench: 
  force: 
    x: -0.0141320626721
    y: 0.0992404514874
    z: -0.0042308626266
  torque: 
    x: 0.00144945053976
    y: -0.00454185595467
    z: -0.00447626568584
---
header: 
  seq: 10225
  stamp: 
    secs: 0
    nsecs:         0
  frame_id: ''
wrench: 
  force: 
    x: 0.0100595794154
    y: 0.0850921373412
    z: -0.0040344099784
  torque: 
    x: 0.00667612105682
    y: 0.00382280028866
    z: -0.00133190725244
---
header: 
  seq: 10226
  stamp: 
    secs: 0
    nsecs:         0
  frame_id: ''
wrench: 
  force: 
    x: -0.0140035330689
    y: 0.0989136692481
    z: -0.00469974260048
  torque: 
    x: 0.00151017253606
    y: -0.00445570227371
    z: -0.0044997620623
---
header: 
  seq: 10227
  stamp: 
    secs: 0
    nsecs:         0
  frame_id: ''
wrench: 
  force: 
    x: 0.00972048371978
    y: 0.085284395628
    z: -0.00459312633989
  torque: 
    x: 0.00672430769277
    y: 0.003791239483
    z: -0.00140351067373
---
header: 
  seq: 10228
  stamp: 
    secs: 0
    nsecs:         0
  frame_id: ''
wrench: 
  force: 
    x: -0.0141000473161
    y: 0.0992177005162
    z: -0.00421396319346
  torque: 
    x: 0.00145835328918
    y: -0.00453168432534
    z: -0.00446914274323
---
header: 
  seq: 10229
  stamp: 
    secs: 0
    nsecs:         0
  frame_id: ''
wrench: 
  force: 
    x: 0.0096784449808
    y: 0.0852961685586
    z: -0.00458591431635
  torque: 
    x: 0.00671940226168
    y: 0.00376988568681
    z: -0.00139824739735
---
header: 
  seq: 10230
  stamp: 
    secs: 0
    nsecs:         0
  frame_id: ''
wrench: 
  force: 
    x: -0.0137702550721
    y: 0.0988304415688
    z: -0.00509217998049
  torque: 
    x: 0.00152611229604
    y: -0.00440708194585
    z: -0.0044555065461
---
header: 
  seq: 10231
  stamp: 
    secs: 0
    nsecs:         0
  frame_id: ''
wrench: 
  force: 
    x: 0.0106993431784
    y: 0.0860944740499
    z: -0.00492829339371
  torque: 
    x: 0.00667875583394
    y: 0.00391966293845
    z: -0.00143642683552
---
header: 
  seq: 10232
  stamp: 
    secs: 0
    nsecs:         0
  frame_id: ''
wrench: 
  force: 
    x: -0.0137570326592
    y: 0.0992836114329
    z: -0.00415538008299
  torque: 
    x: 0.00143957536348
    y: -0.00445465968136
    z: -0.00447949646462
---
header: 
  seq: 10233
  stamp: 
    secs: 0
    nsecs:         0
  frame_id: ''
wrench: 
  force: 
    x: 0.00965861563609
    y: 0.0853288483781
    z: -0.00452224167016
  torque: 
    x: 0.00671864579269
    y: 0.00378850429485
    z: -0.00138559522365
---
header: 
  seq: 10234
  stamp: 
    secs: 0
    nsecs:         0
  frame_id: ''
wrench: 
  force: 
    x: -0.0139169036826
    y: 0.0990405645072
    z: -0.00427078222757
  torque: 
    x: 0.00146359614291
    y: -0.00447576761736
    z: -0.00450458043729
---
header: 
  seq: 10235
  stamp: 
    secs: 0
    nsecs:         0
  frame_id: ''
wrench: 
  force: 
    x: 0.00967766316169
    y: 0.0853592625203
    z: -0.00456438246569
  torque: 
    x: 0.00670289506537
    y: 0.00376309403622
    z: -0.00137571718976
---
header: 
  seq: 10236
  stamp: 
    secs: 0
    nsecs:         0
  frame_id: ''
wrench: 
  force: 
    x: -0.0140605657478
    y: 0.0992300972026
    z: -0.00422838698485
  torque: 
    x: 0.00145797259641
    y: -0.00451338646306
    z: -0.00446377912378
---
header: 
  seq: 10237
  stamp: 
    secs: 0
    nsecs:         0
  frame_id: ''
wrench: 
  force: 
    x: 0.00992927159957
    y: 0.0851153704905
    z: -0.00404631219714
  torque: 
    x: 0.00665422818613
    y: 0.00375774569033
    z: -0.00134962065443
---
header: 
  seq: 10238
  stamp: 
    secs: 0
    nsecs:         0
  frame_id: ''
wrench: 
  force: 
    x: -0.0139477391989
    y: 0.0989108721729
    z: -0.00469478174321
  torque: 
    x: 0.00151721185711
    y: -0.00443082736614
    z: -0.00448590272944
---
header: 
  seq: 10239
  stamp: 
    secs: 0
    nsecs:         0
  frame_id: ''
wrench: 
  force: 
    x: 0.00960260703646
    y: 0.0853136362964
    z: -0.0045971156541
  torque: 
    x: 0.00670118896568
    y: 0.00373041011826
    z: -0.00142334058498
---
header: 
  seq: 10240
  stamp: 
    secs: 0
    nsecs:         0
  frame_id: ''
wrench: 
  force: 
    x: -0.0138045468378
    y: 0.0989756149754
    z: -0.00426453228518
  torque: 
    x: 0.00147891615256
    y: -0.00445227968172
    z: -0.00449252362775
---
header: 
  seq: 10241
  stamp: 
    secs: 0
    nsecs:         0
  frame_id: ''
wrench: 
  force: 
    x: 0.00983533702793
    y: 0.0851674449941
    z: -0.00403539498851
  torque: 
    x: 0.0066389627766
    y: 0.00373446709061
    z: -0.00136292863647
---
header: 
  seq: 10242
  stamp: 
    secs: 0
    nsecs:         0
  frame_id: ''
wrench: 
  force: 
    x: -0.0139011756701
    y: 0.0988812329288
    z: -0.0046891329974
  torque: 
    x: 0.00152533213337
    y: -0.00442014723452
    z: -0.00447545112747
---
header: 
  seq: 10243
  stamp: 
    secs: 0
    nsecs:         0
  frame_id: ''
wrench: 
  force: 
    x: 0.00953630166854
    y: 0.0853575250664
    z: -0.00460141342835
  torque: 
    x: 0.00668772036865
    y: 0.00371165610641
    z: -0.00143549585059
---
header: 
  seq: 10244
  stamp: 
    secs: 0
    nsecs:         0
  frame_id: ''
wrench: 
  force: 
    x: -0.0139706452328
    y: 0.099164909765
    z: -0.00420901079546
  torque: 
    x: 0.00147646663536
    y: -0.00449330617557
    z: -0.00444460466438
---
header: 
  seq: 10245
  stamp: 
    secs: 0
    nsecs:         0
  frame_id: ''
wrench: 
  force: 
    x: 0.00979327061508
    y: 0.0852049639586
    z: -0.00405240559414
  torque: 
    x: 0.00662670874494
    y: 0.00372053633629
    z: -0.00137502665284
---
header: 
  seq: 10246
  stamp: 
    secs: 0
    nsecs:         0
  frame_id: ''
wrench: 
  force: 
    x: -0.013839980429
    y: 0.0988466109866
    z: -0.00468988488631
  torque: 
    x: 0.00153417511833
    y: -0.00440844426898
    z: -0.00446368139425
---
header: 
  seq: 10247
  stamp: 
    secs: 0
    nsecs:         0
  frame_id: ''
wrench: 
  force: 
    x: -0.0115943248685
    y: 0.0952653299923
    z: -0.0053249408108
  torque: 
    x: 0.00236604957381
    y: -0.00382342438211
    z: -0.00348490393565
---
header: 
  seq: 10248
  stamp: 
    secs: 0
    nsecs:         0
  frame_id: ''
wrench: 
  force: 
    x: -0.0131151455667
    y: 0.0991702857893
    z: -0.00458221231885
  torque: 
    x: 0.00149484826167
    y: -0.00433143576046
    z: -0.00439923496723
---
header: 
  seq: 10249
  stamp: 
    secs: 0
    nsecs:         0
  frame_id: ''
wrench: 
  force: 
    x: 0.00958361600467
    y: 0.0854115498874
    z: -0.00455132514131
  torque: 
    x: 0.00668645591961
    y: 0.00375946572084
    z: -0.00144659274547
---
header: 
  seq: 10250
  stamp: 
    secs: 0
    nsecs:         0
  frame_id: ''
wrench: 
  force: 
    x: -0.0139675743496
    y: 0.098930697299
    z: -0.00466947178294
  torque: 
    x: 0.00152111130125
    y: -0.00442146590608
    z: -0.00448435437152
---
header: 
  seq: 10251
  stamp: 
    secs: 0
    nsecs:         0
  frame_id: ''
wrench: 
  force: 
    x: 0.00949102685513
    y: 0.0853430740051
    z: -0.00460511948533
  torque: 
    x: 0.00668282697952
    y: 0.00368079994825
    z: -0.00144809908167
---
header: 
  seq: 10252
  stamp: 
    secs: 0
    nsecs:         0
  frame_id: ''
wrench: 
  force: 
    x: -0.0137627607537
    y: 0.098957282404
    z: -0.00427807491098
  torque: 
    x: 0.001486322901
    y: -0.00443217042466
    z: -0.00447337262121
---
header: 
  seq: 10253
  stamp: 
    secs: 0
    nsecs:         0
  frame_id: ''
wrench: 
  force: 
    x: 0.00944769470846
    y: 0.0854832363216
    z: -0.00457403941754
  torque: 
    x: 0.0066570123627
    y: 0.00368408183913
    z: -0.0014212816418
---
header: 
  seq: 10254
  stamp: 
    secs: 0
    nsecs:         0
  frame_id: ''
wrench: 
  force: 
    x: -0.0138990623127
    y: 0.0991517014761
    z: -0.00422003880665
  torque: 
    x: 0.00148058619237
    y: -0.00447355029675
    z: -0.00442794193635
---
header: 
  seq: 10255
  stamp: 
    secs: 0
    nsecs:         0
  frame_id: ''
wrench: 
  force: 
    x: 0.00969600356615
    y: 0.0852454657377
    z: -0.00407316164454
  torque: 
    x: 0.00660963996502
    y: 0.00368038293267
    z: -0.00139981144842
---
header: 
  seq: 10256
  stamp: 
    secs: 0
    nsecs:         0
  frame_id: ''
wrench: 
  force: 
    x: -0.0138043357445
    y: 0.0988406442635
    z: -0.00468818908271
  torque: 
    x: 0.00153794728624
    y: -0.00439363465801
    z: -0.00444977866961
---
header: 
  seq: 10257
  stamp: 
    secs: 0
    nsecs:         0
  frame_id: ''
wrench: 
  force: 
    x: 0.00936691223258
    y: 0.0854398526948
    z: -0.00461253053445
  torque: 
    x: 0.00665551875684
    y: 0.00365131461345
    z: -0.00147072929479
---
header: 
  seq: 10258
  stamp: 
    secs: 0
    nsecs:         0
  frame_id: ''
wrench: 
  force: 
    x: -0.0136609555729
    y: 0.0989012910813
    z: -0.00426425958984
  torque: 
    x: 0.00150051074705
    y: -0.00441503278236
    z: -0.0044549696858
---
header: 
  seq: 10259
  stamp: 
    secs: 0
    nsecs:         0
  frame_id: ''
wrench: 
  force: 
    x: 0.00933061722364
    y: 0.0855676731255
    z: -0.00458175539835
  torque: 
    x: 0.00663313805948
    y: 0.00365469992165
    z: -0.00144273911415
---
header: 
  seq: 10260
  stamp: 
    secs: 0
    nsecs:         0
  frame_id: ''
wrench: 
  force: 
    x: -0.0138229028119
    y: 0.0990987279036
    z: -0.00421858310796
  torque: 
    x: 0.00149426556034
    y: -0.00445907374855
    z: -0.00441158984072
---
header: 
  seq: 10261
  stamp: 
    secs: 0
    nsecs:         0
  frame_id: ''
wrench: 
  force: 
    x: 0.00958574127701
    y: 0.0853229778149
    z: -0.00408322792233
  torque: 
    x: 0.00658744967088
    y: 0.00365223709794
    z: -0.00142052574649
---
header: 
  seq: 10262
  stamp: 
    secs: 0
    nsecs:         0
  frame_id: ''
wrench: 
  force: 
    x: -0.013727645383
    y: 0.0987914607687
    z: -0.00468555662222
  torque: 
    x: 0.00155041059729
    y: -0.00437892148311
    z: -0.00443258441423
---
header: 
  seq: 10263
  stamp: 
    secs: 0
    nsecs:         0
  frame_id: ''
wrench: 
  force: 
    x: -0.0116169406185
    y: 0.0952955758322
    z: -0.00533633854482
  torque: 
    x: 0.00236243300681
    y: -0.00382306534836
    z: -0.00349495412883
---
header: 
  seq: 10264
  stamp: 
    secs: 0
    nsecs:         0
  frame_id: ''
wrench: 
  force: 
    x: -0.0130010927929
    y: 0.0991225566617
    z: -0.00458018429834
  torque: 
    x: 0.00150955527205
    y: -0.00430182513971
    z: -0.00436922430862
---
header: 
  seq: 10265
  stamp: 
    secs: 0
    nsecs:         0
  frame_id: ''
wrench: 
  force: 
    x: -0.0132298221907
    y: 0.099033173119
    z: -0.00452194012018
  torque: 
    x: 0.00152785929338
    y: -0.00433503940524
    z: -0.00436241248101
---
header: 
  seq: 10266
  stamp: 
    secs: 0
    nsecs:         0
  frame_id: ''
wrench: 
  force: 
    x: -0.0121936486499
    y: 0.0956133038967
    z: -0.00498531836306
  torque: 
    x: 0.00234475711612
    y: -0.00393533525055
    z: -0.00349920527741
---
header: 
  seq: 10267
  stamp: 
    secs: 0
    nsecs:         0
  frame_id: ''
wrench: 
  force: 
    x: 0.00998283119936
    y: 0.0853334455439
    z: -0.00406992485471
  torque: 
    x: 0.00659537537706
    y: 0.00369866215566
    z: -0.00137961569898
---
header: 
  seq: 10268
  stamp: 
    secs: 0
    nsecs:         0
  frame_id: ''
wrench: 
  force: 
    x: 0.00949847880764
    y: 0.0862655740259
    z: -0.00494848264727
  torque: 
    x: 0.00661701908639
    y: 0.00366784223779
    z: -0.00160653354488
---
header: 
  seq: 10269
  stamp: 
    secs: 0
    nsecs:         0
  frame_id: ''
wrench: 
  force: 
    x: -0.0135230902897
    y: 0.0990678601393
    z: -0.00419247900203
  torque: 
    x: 0.00149804854966
    y: -0.00440350124615
    z: -0.00437125560907
---
header: 
  seq: 10270
  stamp: 
    secs: 0
    nsecs:         0
  frame_id: ''
wrench: 
  force: 
    x: 0.00913479649682
    y: 0.0855944879418
    z: -0.0045833175232
  torque: 
    x: 0.00662062928685
    y: 0.00362120412753
    z: -0.00148870696202
---
header: 
  seq: 10271
  stamp: 
    secs: 0
    nsecs:         0
  frame_id: ''
wrench: 
  force: 
    x: -0.0137927788594
    y: 0.0990885081096
    z: -0.00421980434877
  torque: 
    x: 0.00149989825869
    y: -0.00444956938487
    z: -0.00439444959475
---
header: 
  seq: 10272
  stamp: 
    secs: 0
    nsecs:         0
  frame_id: ''
wrench: 
  force: 
    x: 0.00948197165568
    y: 0.0853729118743
    z: -0.00411192765376
  torque: 
    x: 0.00657092936787
    y: 0.00361259478355
    z: -0.00144961234658
---
header: 
  seq: 10273
  stamp: 
    secs: 0
    nsecs:         0
  frame_id: ''
wrench: 
  force: 
    x: -0.0137456162972
    y: 0.0990586013285
    z: -0.0042417907019
  torque: 
    x: 0.0015056087938
    y: -0.00443795627305
    z: -0.00439935564425
---
header: 
  seq: 10274
  stamp: 
    secs: 0
    nsecs:         0
  frame_id: ''
wrench: 
  force: 
    x: 0.0094402142701
    y: 0.0854017637606
    z: -0.00411489318846
  torque: 
    x: 0.00656271085397
    y: 0.00360284481156
    z: -0.00145682935945
---
header: 
  seq: 10275
  stamp: 
    secs: 0
    nsecs:         0
  frame_id: ''
wrench: 
  force: 
    x: -0.0136671096274
    y: 0.0987591081441
    z: -0.00468590101141
  torque: 
    x: 0.00156116701401
    y: -0.00436142206535
    z: -0.00441494409369
---
header: 
  seq: 10276
  stamp: 
    secs: 0
    nsecs:         0
  frame_id: ''
wrench: 
  force: 
    x: 0.00910590437663
    y: 0.0855903970754
    z: -0.00463271286153
  torque: 
    x: 0.00660747069163
    y: 0.00357175178007
    z: -0.00152870196821
---
header: 
  seq: 10277
  stamp: 
    secs: 0
    nsecs:         0
  frame_id: ''
wrench: 
  force: 
    x: -0.0136907465607
    y: 0.0987647762741
    z: -0.00469477717601
  torque: 
    x: 0.00156343277858
    y: -0.00436400126318
    z: -0.00443145532253
---
header: 
  seq: 10278
  stamp: 
    secs: 0
    nsecs:         0
  frame_id: ''
wrench: 
  force: 
    x: 0.00909033928492
    y: 0.085613394435
    z: -0.00464450580238
  torque: 
    x: 0.00660005054919
    y: 0.00356374366973
    z: -0.00153270997679
---
header: 
  seq: 10279
  stamp: 
    secs: 0
    nsecs:         0
  frame_id: ''
wrench: 
  force: 
    x: -0.0111505753752
    y: 0.0960357313058
    z: -0.00582818895644
  torque: 
    x: 0.00236620408349
    y: -0.00380977214523
    z: -0.00350606303608
---
header: 
  seq: 10280
  stamp: 
    secs: 0
    nsecs:         0
  frame_id: ''
wrench: 
  force: 
    x: -0.0123248616169
    y: 0.0987786840282
    z: -0.00426400187413
  torque: 
    x: 0.00150089335614
    y: -0.0042156070217
    z: -0.00452317030855
---
header: 
  seq: 10281
  stamp: 
    secs: 0
    nsecs:         0
  frame_id: ''
wrench: 
  force: 
    x: -0.0130850125662
    y: 0.0989741356061
    z: -0.00450057405906
  torque: 
    x: 0.00154176693717
    y: -0.00428881095516
    z: -0.00434510852119
---
header: 
  seq: 10282
  stamp: 
    secs: 0
    nsecs:         0
  frame_id: ''
wrench: 
  force: 
    x: -0.0131560111466
    y: 0.0990333404646
    z: -0.00411438541294
  torque: 
    x: 0.00150926103579
    y: -0.00435683227826
    z: -0.00432766563937
---
header: 
  seq: 10283
  stamp: 
    secs: 0
    nsecs:         0
  frame_id: ''
wrench: 
  force: 
    x: -0.0132361397568
    y: 0.0989234129204
    z: -0.00471049362898
  torque: 
    x: 0.00156740226596
    y: -0.00435356649333
    z: -0.0045996069937
---
header: 
  seq: 10284
  stamp: 
    secs: 0
    nsecs:         0
  frame_id: ''
wrench: 
  force: 
    x: -0.0119904750759
    y: 0.0956266510995
    z: -0.00501919304629
  torque: 
    x: 0.00234455496058
    y: -0.00391169441271
    z: -0.00348233718554
---
header: 
  seq: 10285
  stamp: 
    secs: 0
    nsecs:         0
  frame_id: ''
wrench: 
  force: 
    x: 0.00972333595051
    y: 0.0854683877267
    z: -0.00411336899725
  torque: 
    x: 0.00655531389271
    y: 0.0036352165742
    z: -0.00143950170073
---
header: 
  seq: 10286
  stamp: 
    secs: 0
    nsecs:         0
  frame_id: ''
wrench: 
  force: 
    x: 0.00927333364323
    y: 0.0863865475986
    z: -0.00494841614283
  torque: 
    x: 0.00657465643788
    y: 0.00359653625359
    z: -0.00165146005552
---
header: 
  seq: 10287
  stamp: 
    secs: 0
    nsecs:         0
  frame_id: ''
wrench: 
  force: 
    x: -0.0133913547069
    y: 0.0989833187653
    z: -0.00419303908404
  torque: 
    x: 0.00152085114263
    y: -0.00437547850729
    z: -0.00434004705317
---
header: 
  seq: 10288
  stamp: 
    secs: 0
    nsecs:         0
  frame_id: ''
wrench: 
  force: 
    x: 0.00890531271002
    y: 0.0857277899447
    z: -0.00460367797646
  torque: 
    x: 0.00657929347608
    y: 0.00355002828376
    z: -0.00153901537386
---
header: 
  seq: 10289
  stamp: 
    secs: 0
    nsecs:         0
  frame_id: ''
wrench: 
  force: 
    x: -0.0136450371262
    y: 0.0987445952618
    z: -0.00470310706499
  torque: 
    x: 0.00157276393244
    y: -0.00435519928929
    z: -0.00441110136127
---
header: 
  seq: 10290
  stamp: 
    secs: 0
    nsecs:         0
  frame_id: ''
wrench: 
  force: 
    x: 0.00927640152632
    y: 0.0855131613524
    z: -0.00416189792198
  torque: 
    x: 0.00652850288778
    y: 0.0035496188108
    z: -0.00150579995314
---
header: 
  seq: 10291
  stamp: 
    secs: 0
    nsecs:         0
  frame_id: ''
wrench: 
  force: 
    x: -0.0136106859794
    y: 0.098974125689
    z: -0.00424972242243
  torque: 
    x: 0.00152857140902
    y: -0.00440871355142
    z: -0.00436945999026
---
header: 
  seq: 10292
  stamp: 
    secs: 0
    nsecs:         0
  frame_id: ''
wrench: 
  force: 
    x: 0.00894062906465
    y: 0.0857935508635
    z: -0.0046324427751
  torque: 
    x: 0.00655933081916
    y: 0.00352562695017
    z: -0.00153381006939
---
header: 
  seq: 10293
  stamp: 
    secs: 0
    nsecs:         0
  frame_id: ''
wrench: 
  force: 
    x: -0.0135838227038
    y: 0.0987016983792
    z: -0.00470783688673
  torque: 
    x: 0.00158237082896
    y: -0.00434157787978
    z: -0.00440756176361
---
header: 
  seq: 10294
  stamp: 
    secs: 0
    nsecs:         0
  frame_id: ''
wrench: 
  force: 
    x: 0.01019878659
    y: 0.0852465555645
    z: -0.00352210984535
  torque: 
    x: 0.00651530980758
    y: 0.00382305498771
    z: -0.00136718378091
---
header: 
  seq: 10295
  stamp: 
    secs: 0
    nsecs:         0
  frame_id: ''
wrench: 
  force: 
    x: -0.0118304448698
    y: 0.0986969347361
    z: -0.00491259219528
  torque: 
    x: 0.00157794336852
    y: -0.00414020615156
    z: -0.00454621053816
---
header: 
  seq: 10296
  stamp: 
    secs: 0
    nsecs:         0
  frame_id: ''
wrench: 
  force: 
    x: 0.00998986779908
    y: 0.0865728230161
    z: -0.0049136821287
  torque: 
    x: 0.00654485025046
    y: 0.00370461170066
    z: -0.00160810468219
---
header: 
  seq: 10297
  stamp: 
    secs: 0
    nsecs:         0
  frame_id: ''
wrench: 
  force: 
    x: 0.00949263850424
    y: 0.086472533957
    z: -0.00489137549983
  torque: 
    x: 0.00655938817196
    y: 0.00363831740367
    z: -0.00166185421821
---
header: 
  seq: 10298
  stamp: 
    secs: 0
    nsecs:         0
  frame_id: ''
wrench: 
  force: 
    x: 0.00938731028815
    y: 0.0864718533331
    z: -0.00493573438131
  torque: 
    x: 0.00655739211816
    y: 0.00359805291507
    z: -0.00166754649567
---
header: 
  seq: 10299
  stamp: 
    secs: 0
    nsecs:         0
  frame_id: ''
wrench: 
  force: 
    x: 0.0095530452407
    y: 0.0862656864827
    z: -0.00500684826096
  torque: 
    x: 0.00656491451752
    y: 0.00363126941627
    z: -0.00168802279472
---
header: 
  seq: 10300
  stamp: 
    secs: 0
    nsecs:         0
  frame_id: ''
wrench: 
  force: 
    x: 0.00950356623139
    y: 0.0862844391172
    z: -0.0049926947378
  torque: 
    x: 0.00656081733984
    y: 0.00362321829942
    z: -0.00169348210072
---
header: 
  seq: 10301
  stamp: 
    secs: 0
    nsecs:         0
  frame_id: ''
wrench: 
  force: 
    x: 0.00948919930882
    y: 0.0862975697045
    z: -0.00499023686792
  torque: 
    x: 0.00655816381245
    y: 0.00361953524826
    z: -0.00169671573572
---
header: 
  seq: 10302
  stamp: 
    secs: 0
    nsecs:         0
  frame_id: ''
wrench: 
  force: 
    x: -0.0134661398007
    y: 0.0986997247425
    z: -0.00465286578303
  torque: 
    x: 0.00158262742659
    y: -0.00430063373338
    z: -0.00439399395198
---
header: 
  seq: 10303
  stamp: 
    secs: 0
    nsecs:         0
  frame_id: ''
wrench: 
  force: 
    x: -0.0130003636754
    y: 0.0989380507842
    z: -0.00417338982342
  torque: 
    x: 0.00154215177477
    y: -0.00434313011645
    z: -0.00429329121131
---
header: 
  seq: 10304
  stamp: 
    secs: 0
    nsecs:         0
  frame_id: ''
wrench: 
  force: 
    x: -0.0130102864572
    y: 0.0988061084267
    z: -0.00473164656028
  torque: 
    x: 0.00159921774267
    y: -0.00431593679485
    z: -0.00456249780614
---
header: 
  seq: 10305
  stamp: 
    secs: 0
    nsecs:         0
  frame_id: ''
wrench: 
  force: 
    x: -0.0119622253117
    y: 0.0956510542524
    z: -0.00503407250026
  torque: 
    x: 0.00234601466868
    y: -0.00390475826708
    z: -0.00349398135869
---
header: 
  seq: 10306
  stamp: 
    secs: 0
    nsecs:         0
  frame_id: ''
wrench: 
  force: 
    x: 0.00919555899196
    y: 0.0858961525868
    z: -0.00461520147024
  torque: 
    x: 0.00654259533123
    y: 0.00354876241409
    z: -0.00152239471721
---
header: 
  seq: 10307
  stamp: 
    secs: 0
    nsecs:         0
  frame_id: ''
wrench: 
  force: 
    x: -0.013702611637
    y: 0.0986888646865
    z: -0.00469096597618
  torque: 
    x: 0.00158947114084
    y: -0.00433180980666
    z: -0.00441787384111
---
header: 
  seq: 10308
  stamp: 
    secs: 0
    nsecs:         0
  frame_id: ''
wrench: 
  force: 
    x: 0.00902805883313
    y: 0.0856359642899
    z: -0.0041783242682
  torque: 
    x: 0.00649318375196
    y: 0.0034753835671
    z: -0.00155223347987
---
header: 
  seq: 10309
  stamp: 
    secs: 0
    nsecs:         0
  frame_id: ''
wrench: 
  force: 
    x: -0.0135072545837
    y: 0.0989065227155
    z: -0.00425972120649
  torque: 
    x: 0.00154956605332
    y: -0.00438846956224
    z: -0.00434700088004
---
header: 
  seq: 10310
  stamp: 
    secs: 0
    nsecs:         0
  frame_id: ''
wrench: 
  force: 
    x: 0.00873380484383
    y: 0.0859102549584
    z: -0.00465600899489
  torque: 
    x: 0.00652388001278
    y: 0.00345817056532
    z: -0.00157988917174
---
header: 
  seq: 10311
  stamp: 
    secs: 0
    nsecs:         0
  frame_id: ''
wrench: 
  force: 
    x: -0.0111554227998
    y: 0.0960439683557
    z: -0.00585519134592
  torque: 
    x: 0.00237175781915
    y: -0.00381482126718
    z: -0.00352107961116
---
header: 
  seq: 10312
  stamp: 
    secs: 0
    nsecs:         0
  frame_id: ''
wrench: 
  force: 
    x: -0.0121805074464
    y: 0.0987022963895
    z: -0.00433044285294
  torque: 
    x: 0.00153346130874
    y: -0.00417531442922
    z: -0.0045067565362
---
header: 
  seq: 10313
  stamp: 
    secs: 0
    nsecs:         0
  frame_id: ''
wrench: 
  force: 
    x: 0.00987765475432
    y: 0.0865619370757
    z: -0.00489263982603
  torque: 
    x: 0.0065332206159
    y: 0.00363666597654
    z: -0.00164445349137
---
header: 
  seq: 10314
  stamp: 
    secs: 0
    nsecs:         0
  frame_id: ''
wrench: 
  force: 
    x: 0.00918741293832
    y: 0.0865515979862
    z: -0.00490853468414
  torque: 
    x: 0.00653020564577
    y: 0.00356230327128
    z: -0.00170959641407
---
header: 
  seq: 10315
  stamp: 
    secs: 0
    nsecs:         0
  frame_id: ''
wrench: 
  force: 
    x: 0.00991378536958
    y: 0.085680093967
    z: -0.00412109386668
  torque: 
    x: 0.00650140353533
    y: 0.0035943891217
    z: -0.00152339439085
---
header: 
  seq: 10316
  stamp: 
    secs: 0
    nsecs:         0
  frame_id: ''
wrench: 
  force: 
    x: 0.00965377385175
    y: 0.0856675688171
    z: -0.00415009609769
  torque: 
    x: 0.00649762215549
    y: 0.00356649034825
    z: -0.00156731111755
---
header: 
  seq: 10317
  stamp: 
    secs: 0
    nsecs:         0
  frame_id: ''
wrench: 
  force: 
    x: 0.00967371825768
    y: 0.0856693407945
    z: -0.00413502225802
  torque: 
    x: 0.0064940949711
    y: 0.00355112868534
    z: -0.00154201405461
---
header: 
  seq: 10318
  stamp: 
    secs: 0
    nsecs:         0
  frame_id: ''
wrench: 
  force: 
    x: 0.00965324864158
    y: 0.0856856633709
    z: -0.00413211493143
  torque: 
    x: 0.00649103687073
    y: 0.00354795958152
    z: -0.00154685433919
---
header: 
  seq: 10319
  stamp: 
    secs: 0
    nsecs:         0
  frame_id: ''
wrench: 
  force: 
    x: 0.00963745583761
    y: 0.0856954589831
    z: -0.00413503543942
  torque: 
    x: 0.00648878158449
    y: 0.00354522452271
    z: -0.00155072940626
---
header: 
  seq: 10320
  stamp: 
    secs: 0
    nsecs:         0
  frame_id: ''
wrench: 
  force: 
    x: 0.00962645265249
    y: 0.0857053215875
    z: -0.00413678247988
  torque: 
    x: 0.00648687666331
    y: 0.00354245843499
    z: -0.00155344266586
---
header: 
  seq: 10321
  stamp: 
    secs: 0
    nsecs:         0
  frame_id: ''
wrench: 
  force: 
    x: 0.00961302884303
    y: 0.0857143594389
    z: -0.00413975863061
  torque: 
    x: 0.00648528664985
    y: 0.00353968393857
    z: -0.001556559753
---
header: 
  seq: 10322
  stamp: 
    secs: 0
    nsecs:         0
  frame_id: ''
wrench: 
  force: 
    x: 0.00962809076467
    y: 0.0857406182156
    z: -0.00415988350654
  torque: 
    x: 0.00648153668706
    y: 0.00354496200505
    z: -0.0015758309524
---
header: 
  seq: 10323
  stamp: 
    secs: 0
    nsecs:         0
  frame_id: ''
wrench: 
  force: 
    x: 0.00888701641515
    y: 0.0865940666788
    z: -0.004969769482
  torque: 
    x: 0.00650297926518
    y: 0.00347654936161
    z: -0.00173542132471
---
header: 
  seq: 10324
  stamp: 
    secs: 0
    nsecs:         0
  frame_id: ''
wrench: 
  force: 
    x: -0.0132558291161
    y: 0.0985887428035
    z: -0.00468494122329
  torque: 
    x: 0.00161769959388
    y: -0.00427758860284
    z: -0.00435685298465
---
header: 
  seq: 10325
  stamp: 
    secs: 0
    nsecs:         0
  frame_id: ''
wrench: 
  force: 
    x: -0.0128592802429
    y: 0.0988305457522
    z: -0.00419149780214
  torque: 
    x: 0.00157310445698
    y: -0.0043150752715
    z: -0.0042711505495
---
header: 
  seq: 10326
  stamp: 
    secs: 0
    nsecs:         0
  frame_id: ''
wrench: 
  force: 
    x: -0.0129212222291
    y: 0.0987187197213
    z: -0.00474393530471
  torque: 
    x: 0.00162828263748
    y: -0.00429448050275
    z: -0.00454022725923
---
header: 
  seq: 10327
  stamp: 
    secs: 0
    nsecs:         0
  frame_id: ''
wrench: 
  force: 
    x: 0.00888103680848
    y: 0.0857292591457
    z: -0.00421787564234
  torque: 
    x: 0.00647331336578
    y: 0.0034541937376
    z: -0.0016057738715
---
header: 
  seq: 10328
  stamp: 
    secs: 0
    nsecs:         0
  frame_id: ''
wrench: 
  force: 
    x: 0.00880094126674
    y: 0.086649133065
    z: -0.0049834104717
  torque: 
    x: 0.00648531900303
    y: 0.00342351380286
    z: -0.0017373499994
---
header: 
  seq: 10329
  stamp: 
    secs: 0
    nsecs:         0
  frame_id: ''
wrench: 
  force: 
    x: -0.0125271203062
    y: 0.0965806696232
    z: -0.00555080571115
  torque: 
    x: 0.00234102834831
    y: -0.00403123148577
    z: -0.00307067491317
---
header: 
  seq: 10330
  stamp: 
    secs: 0
    nsecs:         0
  frame_id: ''
wrench: 
  force: 
    x: -0.0106708092226
    y: 0.0959209509412
    z: -0.00496230271791
  torque: 
    x: 0.00231473169305
    y: -0.00377272986182
    z: -0.00339028177776
---
header: 
  seq: 10331
  stamp: 
    secs: 0
    nsecs:         0
  frame_id: ''
wrench: 
  force: 
    x: -0.012392347324
    y: 0.0987504378721
    z: -0.00468990896996
  torque: 
    x: 0.00161835174916
    y: -0.00420382376035
    z: -0.00453802086662
---
header: 
  seq: 10332
  stamp: 
    secs: 0
    nsecs:         0
  frame_id: ''
wrench: 
  force: 
    x: 0.00952852303306
    y: 0.0866442046111
    z: -0.00488250517602
  torque: 
    x: 0.00650876111388
    y: 0.00355351706284
    z: -0.00168831707449
---
header: 
  seq: 10333
  stamp: 
    secs: 0
    nsecs:         0
  frame_id: ''
wrench: 
  force: 
    x: -0.0132113752669
    y: 0.0986199522935
    z: -0.00469784751846
  torque: 
    x: 0.00163402117398
    y: -0.00429371232407
    z: -0.00460592572524
---
header: 
  seq: 10334
  stamp: 
    secs: 0
    nsecs:         0
  frame_id: ''
wrench: 
  force: 
    x: -0.0130408792961
    y: 0.0988008206911
    z: -0.00457462941188
  torque: 
    x: 0.00160850009892
    y: -0.00428779772411
    z: -0.00427706808154
---
header: 
  seq: 10335
  stamp: 
    secs: 0
    nsecs:         0
  frame_id: ''
wrench: 
  force: 
    x: -0.0130943844056
    y: 0.0987887520101
    z: -0.00462305265218
  torque: 
    x: 0.00160984108304
    y: -0.00428823917212
    z: -0.00429954656886
---
header: 
  seq: 10336
  stamp: 
    secs: 0
    nsecs:         0
  frame_id: ''
wrench: 
  force: 
    x: -0.0130390227903
    y: 0.0987769496369
    z: -0.00462120951427
  torque: 
    x: 0.00161319533473
    y: -0.00428476563453
    z: -0.00429101139035
---
header: 
  seq: 10337
  stamp: 
    secs: 0
    nsecs:         0
  frame_id: ''
wrench: 
  force: 
    x: -0.0130313370354
    y: 0.0987690178816
    z: -0.00461802593007
  torque: 
    x: 0.00161569492438
    y: -0.00428304435276
    z: -0.0042906681025
---
header: 
  seq: 10338
  stamp: 
    secs: 0
    nsecs:         0
  frame_id: ''
wrench: 
  force: 
    x: -0.0130303775059
    y: 0.098762615442
    z: -0.00461758215876
  torque: 
    x: 0.00161774243064
    y: -0.00428184240874
    z: -0.00429219331932
---
header: 
  seq: 10339
  stamp: 
    secs: 0
    nsecs:         0
  frame_id: ''
wrench: 
  force: 
    x: -0.0130217402157
    y: 0.0987555910607
    z: -0.0046179502666
  torque: 
    x: 0.00161982900801
    y: -0.00428108074165
    z: -0.00428896815475
---
header: 
  seq: 10340
  stamp: 
    secs: 0
    nsecs:         0
  frame_id: ''
wrench: 
  force: 
    x: -0.0130153126148
    y: 0.0987494961624
    z: -0.00461904217325
  torque: 
    x: 0.00162185705205
    y: -0.00428012733151
    z: -0.00428822817689
---
header: 
  seq: 10341
  stamp: 
    secs: 0
    nsecs:         0
  frame_id: ''
wrench: 
  force: 
    x: 0.00862387638405
    y: 0.086269989197
    z: -0.00463456381239
  torque: 
    x: 0.00648563308078
    y: 0.00343895565039
    z: -0.00150605288646
---
header: 
  seq: 10342
  stamp: 
    secs: 0
    nsecs:         0
  frame_id: ''
wrench: 
  force: 
    x: -0.0115430060454
    y: 0.0962335352061
    z: -0.00658998612555
  torque: 
    x: 0.00244545001861
    y: -0.00380432996926
    z: -0.00393220430383
---
header: 
  seq: 10343
  stamp: 
    secs: 0
    nsecs:         0
  frame_id: ''
wrench: 
  force: 
    x: -0.0119919803305
    y: 0.0986193103502
    z: -0.00431324786036
  torque: 
    x: 0.00157445017017
    y: -0.00417020276449
    z: -0.00445617004036
---
header: 
  seq: 10344
  stamp: 
    secs: 0
    nsecs:         0
  frame_id: ''
wrench: 
  force: 
    x: 0.00952385125293
    y: 0.086679320283
    z: -0.00492698819676
  torque: 
    x: 0.00648246365562
    y: 0.00352063110751
    z: -0.00170168450464
---
header: 
  seq: 10345
  stamp: 
    secs: 0
    nsecs:         0
  frame_id: ''
wrench: 
  force: 
    x: -0.011250879487
    y: 0.0957285025766
    z: -0.00497864745439
  torque: 
    x: 0.00235154585673
    y: -0.00384274615155
    z: -0.0034971648343
---
header: 
  seq: 10346
  stamp: 
    secs: 0
    nsecs:         0
  frame_id: ''
wrench: 
  force: 
    x: -0.0125840654978
    y: 0.0987290726349
    z: -0.00470379006215
  torque: 
    x: 0.00163389873155
    y: -0.0042382435771
    z: -0.00450144641662
---
header: 
  seq: 10347
  stamp: 
    secs: 0
    nsecs:         0
  frame_id: ''
wrench: 
  force: 
    x: 0.00931312175063
    y: 0.0867068548859
    z: -0.00493605321732
  torque: 
    x: 0.00647180232349
    y: 0.00346961666381
    z: -0.00171227540954
---
header: 
  seq: 10348
  stamp: 
    secs: 0
    nsecs:         0
  frame_id: ''
wrench: 
  force: 
    x: -0.011221898277
    y: 0.0957234509184
    z: -0.00500562128005
  torque: 
    x: 0.00235260179837
    y: -0.00383889937517
    z: -0.00349844285932
---
header: 
  seq: 10349
  stamp: 
    secs: 0
    nsecs:         0
  frame_id: ''
wrench: 
  force: 
    x: -0.0125160120286
    y: 0.0986938810356
    z: -0.00471080494173
  torque: 
    x: 0.00164257740594
    y: -0.00423042692511
    z: -0.00449461628808
---
header: 
  seq: 10350
  stamp: 
    secs: 0
    nsecs:         0
  frame_id: ''
wrench: 
  force: 
    x: -0.0121371727251
    y: 0.096162432498
    z: -0.00543286487832
  torque: 
    x: 0.00236929180251
    y: -0.00389489774114
    z: -0.00339856913711
---
header: 
  seq: 10351
  stamp: 
    secs: 0
    nsecs:         0
  frame_id: ''
wrench: 
  force: 
    x: 0.00857815488108
    y: 0.0866299392002
    z: -0.00497885038462
  torque: 
    x: 0.00647535556356
    y: 0.00344013239281
    z: -0.00180684733685
---
header: 
  seq: 10352
  stamp: 
    secs: 0
    nsecs:         0
  frame_id: ''
wrench: 
  force: 
    x: -0.0131233777204
    y: 0.0974028572016
    z: -0.00479656645451
  torque: 
    x: 0.00187262578066
    y: -0.00409797472038
    z: -0.00401154194641
---
header: 
  seq: 10353
  stamp: 
    secs: 0
    nsecs:         0
  frame_id: ''
wrench: 
  force: 
    x: 0.00409628977255
    y: 0.0898635091021
    z: -0.00318536856867
  torque: 
    x: 0.00495962514684
    y: 0.00168272229829
    z: -0.0024641560982
---
header: 
  seq: 10354
  stamp: 
    secs: 0
    nsecs:         0
  frame_id: ''
wrench: 
  force: 
    x: -5.58848353347e-05
    y: 0.0931194325358
    z: -0.00454270331282
  torque: 
    x: 0.0042207089232
    y: 0.00104149541724
    z: -0.00324380570544
---
header: 
  seq: 10355
  stamp: 
    secs: 0
    nsecs:         0
  frame_id: ''
wrench: 
  force: 
    x: 0.00346041519776
    y: 0.0996189903218
    z: 0.00165532078197
  torque: 
    x: -0.00426558279071
    y: -0.000902185617018
    z: 0.00555212545422
---
header: 
  seq: 10356
  stamp: 
    secs: 0
    nsecs:         0
  frame_id: ''
wrench: 
  force: 
    x: 0.0010052150588
    y: 0.108449596824
    z: 0.000165364008539
  torque: 
    x: -0.00370884509523
    y: 0.00197009628329
    z: 0.00104633730187
---
header: 
  seq: 10357
  stamp: 
    secs: 0
    nsecs:         0
  frame_id: ''
wrench: 
  force: 
    x: 0.00439397913699
    y: 0.0993906443112
    z: 0.00276277137853
  torque: 
    x: -0.00441599923647
    y: -0.000883304104778
    z: 0.00511909379081
---
header: 
  seq: 10358
  stamp: 
    secs: 0
    nsecs:         0
  frame_id: ''
wrench: 
  force: 
    x: 0.00492435688755
    y: 0.0994222874685
    z: 0.00226063629198
  torque: 
    x: -0.00437801825215
    y: -0.000775550620699
    z: 0.00502265107129
---
header: 
  seq: 10359
  stamp: 
    secs: 0
    nsecs:         0
  frame_id: ''
wrench: 
  force: 
    x: 0.00406070896588
    y: 0.0998072258215
    z: 0.00165163941794
  torque: 
    x: -0.00430542440172
    y: -0.000914186757834
    z: 0.00517000024067
---
header: 
  seq: 10360
  stamp: 
    secs: 0
    nsecs:         0
  frame_id: ''
wrench: 
  force: 
    x: 0.00453769707387
    y: 0.099801450496
    z: 0.00168112627422
  torque: 
    x: -0.00430661839675
    y: -0.00086643684124
    z: 0.00526072640825
---
header: 
  seq: 10361
  stamp: 
    secs: 0
    nsecs:         0
  frame_id: ''
wrench: 
  force: 
    x: 0.00437486134951
    y: 0.0998799684558
    z: 0.00179925297898
  torque: 
    x: -0.00431332283955
    y: -0.000873352081613
    z: 0.00525095871533
---
header: 
  seq: 10362
  stamp: 
    secs: 0
    nsecs:         0
  frame_id: ''
wrench: 
  force: 
    x: 0.00436134279973
    y: 0.0998329062661
    z: 0.00171553856795
  torque: 
    x: -0.00431203235203
    y: -0.000882160022377
    z: 0.00523797036906
---
header: 
  seq: 10363
  stamp: 
    secs: 0
    nsecs:         0
  frame_id: ''
wrench: 
  force: 
    x: 0.00504024811953
    y: 0.0994583693606
    z: 0.00236011541069
  torque: 
    x: -0.00438164467146
    y: -0.000741286728209
    z: 0.00502304684537
---
header: 
  seq: 10364
  stamp: 
    secs: 0
    nsecs:         0
  frame_id: ''
wrench: 
  force: 
    x: 0.00757613736128
    y: 0.0989569256645
    z: 0.00302422781403
  torque: 
    x: -0.00242606210175
    y: 0.00355235487218
    z: 0.00368835793029
---
header: 
  seq: 10365
  stamp: 
    secs: 0
    nsecs:         0
  frame_id: ''
wrench: 
  force: 
    x: 0.00727955299131
    y: 0.0986595897984
    z: 0.00301642146448
  torque: 
    x: -0.00237626307158
    y: 0.00351386775694
    z: 0.00372157077204
---
header: 
  seq: 10366
  stamp: 
    secs: 0
    nsecs:         0
  frame_id: ''
wrench: 
  force: 
    x: 0.00183949510816
    y: 0.108328853064
    z: 0.00023781352315
  torque: 
    x: -0.00365063904043
    y: 0.00204009210289
    z: 0.000823131506393
---
header: 
  seq: 10367
  stamp: 
    secs: 0
    nsecs:         0
  frame_id: ''
wrench: 
  force: 
    x: 0.00144972484532
    y: 0.10849279785
    z: 0.000193864035793
  torque: 
    x: -0.00365549893786
    y: 0.00202490258529
    z: 0.000792670751693
---
header: 
  seq: 10368
  stamp: 
    secs: 0
    nsecs:         0
  frame_id: ''
wrench: 
  force: 
    x: 0.00167368751428
    y: 0.108236837843
    z: 0.000545928780208
  torque: 
    x: -0.00366739071558
    y: 0.00204708325005
    z: 0.00110624201407
---
header: 
  seq: 10369
  stamp: 
    secs: 0
    nsecs:         0
  frame_id: ''
wrench: 
  force: 
    x: 0.00476500633747
    y: 0.0998879575249
    z: 0.00188294509849
  torque: 
    x: -0.00431725888968
    y: -0.000820746880955
    z: 0.00527361275083
---
header: 
  seq: 10370
  stamp: 
    secs: 0
    nsecs:         0
  frame_id: ''
wrench: 
  force: 
    x: 0.00434907743137
    y: 0.0999244223185
    z: 0.0018387736655
  torque: 
    x: -0.00431708861877
    y: -0.000853149153456
    z: 0.00524348102145
---
header: 
  seq: 10371
  stamp: 
    secs: 0
    nsecs:         0
  frame_id: ''
wrench: 
  force: 
    x: 0.00434790846952
    y: 0.0999217272908
    z: 0.00184344000208
  torque: 
    x: -0.00431597051035
    y: -0.00085416637641
    z: 0.00524902231397
---
header: 
  seq: 10372
  stamp: 
    secs: 0
    nsecs:         0
  frame_id: ''
wrench: 
  force: 
    x: 0.0044075884719
    y: 0.0999195513753
    z: 0.0018397682422
  torque: 
    x: -0.00431470570363
    y: -0.000846028837734
    z: 0.00525697083089
---
header: 
  seq: 10373
  stamp: 
    secs: 0
    nsecs:         0
  frame_id: ''
wrench: 
  force: 
    x: 0.00728185430886
